{
"type": "FeatureCollection",
"crs": { "type": "name", "properties": { "name": "urn:ogc:def:crs:OGC:1.3:CRS84" } },
                                                                                
"features": [
{ "type": "Feature", "properties": { "scalerank": 4, "name": "Billings", "namealt": null, "adm1name": "Montana", "latitude": 45.788302, "longitude": -108.540000, "pop_max": 104552, "visible": 1 }, "geometry": { "type": "Point", "coordinates": [ -108.540000449439844, 45.78830202135839 ] } },
{ "type": "Feature", "properties": { "scalerank": 4, "name": "Missoula", "namealt": null, "adm1name": "Montana", "latitude": 46.872241, "longitude": -113.993053, "pop_max": 72856, "visible": 1 }, "geometry": { "type": "Point", "coordinates": [ -113.993052614175269, 46.872241026896631 ] } },
{ "type": "Feature", "properties": { "scalerank": 6, "name": "Medford", "namealt": null, "adm1name": "Oregon", "latitude": 42.326627, "longitude": -122.874423, "pop_max": 108525, "visible": 1 }, "geometry": { "type": "Point", "coordinates": [ -122.874422650018175, 42.326627013206689 ] } },
{ "type": "Feature", "properties": { "scalerank": 6, "name": "Bend", "namealt": null, "adm1name": "Oregon", "latitude": 44.071921, "longitude": -121.309996, "pop_max": 75441, "visible": 1 }, "geometry": { "type": "Point", "coordinates": [ -121.30999617703003, 44.071920999216104 ] } },
{ "type": "Feature", "properties": { "scalerank": 4, "name": "Salem", "namealt": null, "adm1name": "Oregon", "latitude": 44.928070, "longitude": -123.023897, "pop_max": 229010, "visible": 1 }, "geometry": { "type": "Point", "coordinates": [ -123.023896730422393, 44.928070291211725 ] } },
{ "type": "Feature", "properties": { "scalerank": 3, "name": "Portland", "namealt": null, "adm1name": "Oregon", "latitude": 45.520024, "longitude": -122.679990, "pop_max": 1875000, "visible": 1 }, "geometry": { "type": "Point", "coordinates": [ -122.681935932132888, 45.521969681728024 ] } },
{ "type": "Feature", "properties": { "scalerank": 8, "name": "Allentown", "namealt": null, "adm1name": "Pennsylvania", "latitude": 40.599988, "longitude": -75.500028, "pop_max": 496442, "visible": 1 }, "geometry": { "type": "Point", "coordinates": [ -75.500027508227049, 40.599988219254385 ] } },
{ "type": "Feature", "properties": { "scalerank": 7, "name": "Erie", "namealt": null, "adm1name": "Pennsylvania", "latitude": 42.129921, "longitude": -80.084993, "pop_max": 178182, "visible": 1 }, "geometry": { "type": "Point", "coordinates": [ -80.08499312510736, 42.129920673687536 ] } },
{ "type": "Feature", "properties": { "scalerank": 3, "name": "Pittsburgh", "namealt": null, "adm1name": "Pennsylvania", "latitude": 40.429999, "longitude": -79.999985, "pop_max": 1838000, "visible": 1 }, "geometry": { "type": "Point", "coordinates": [ -80.00193125260023, 40.43194445384313 ] } },
{ "type": "Feature", "properties": { "scalerank": 2, "name": "Philadelphia", "namealt": null, "adm1name": "Pennsylvania", "latitude": 39.999973, "longitude": -75.169996, "pop_max": 5492000, "visible": 1 }, "geometry": { "type": "Point", "coordinates": [ -75.171941832007917, 40.001919022526465 ] } },
{ "type": "Feature", "properties": { "scalerank": 7, "name": "Columbus", "namealt": null, "adm1name": "Georgia", "latitude": 32.470433, "longitude": -84.980017, "pop_max": 217980, "visible": 1 }, "geometry": { "type": "Point", "coordinates": [ -84.980017335738978, 32.470432758609832 ] } },
{ "type": "Feature", "properties": { "scalerank": 6, "name": "Augusta", "namealt": null, "adm1name": "Georgia", "latitude": 33.460812, "longitude": -81.984981, "pop_max": 262332, "visible": 1 }, "geometry": { "type": "Point", "coordinates": [ -81.984980511182641, 33.460811583483519 ] } },
{ "type": "Feature", "properties": { "scalerank": 4, "name": "Savannah", "namealt": null, "adm1name": "Georgia", "latitude": 32.021106, "longitude": -81.109995, "pop_max": 180187, "visible": 1 }, "geometry": { "type": "Point", "coordinates": [ -81.109995159616574, 32.021106179832088 ] } },
{ "type": "Feature", "properties": { "scalerank": 1, "name": "Atlanta", "namealt": null, "adm1name": "Georgia", "latitude": 33.830014, "longitude": -84.399949, "pop_max": 4506000, "visible": 1 }, "geometry": { "type": "Point", "coordinates": [ -84.40189524187565, 33.831959712605851 ] } },
{ "type": "Feature", "properties": { "scalerank": 6, "name": "Yuma", "namealt": null, "adm1name": "Arizona", "latitude": 32.685278, "longitude": -114.623608, "pop_max": 92489, "visible": 1 }, "geometry": { "type": "Point", "coordinates": [ -114.623608441000783, 32.685277525863398 ] } },
{ "type": "Feature", "properties": { "scalerank": 4, "name": "Flagstaff", "namealt": null, "adm1name": "Arizona", "latitude": 35.198096, "longitude": -111.650508, "pop_max": 63993, "visible": 1 }, "geometry": { "type": "Point", "coordinates": [ -111.650508261952439, 35.198095722487949 ] } },
{ "type": "Feature", "properties": { "scalerank": 4, "name": "Tucson", "namealt": null, "adm1name": "Arizona", "latitude": 32.204997, "longitude": -110.889986, "pop_max": 823000, "visible": 1 }, "geometry": { "type": "Point", "coordinates": [ -110.891932066525783, 32.206942622755662 ] } },
{ "type": "Feature", "properties": { "scalerank": 2, "name": "Phoenix", "namealt": "Phoenix-Mesa", "adm1name": "Arizona", "latitude": 33.539980, "longitude": -112.069992, "pop_max": 3551000, "visible": 1 }, "geometry": { "type": "Point", "coordinates": [ -112.071937559694675, 33.541925736367602 ] } },
{ "type": "Feature", "properties": { "scalerank": 4, "name": "El Paso", "namealt": null, "adm1name": "Texas", "latitude": 31.779984, "longitude": -106.509995, "pop_max": 753000, "visible": 1 }, "geometry": { "type": "Point", "coordinates": [ -106.511941018331243, 31.781929805371249 ] } },
{ "type": "Feature", "properties": { "scalerank": 3, "name": "San Antonio", "namealt": null, "adm1name": "Texas", "latitude": 29.487333, "longitude": -98.507305, "pop_max": 1473000, "visible": 1 }, "geometry": { "type": "Point", "coordinates": [ -98.509251198963284, 29.48927904852593 ] } },
{ "type": "Feature", "properties": { "scalerank": 2, "name": "Dallas", "namealt": "Dallas-Fort Worth", "adm1name": "Texas", "latitude": 32.820024, "longitude": -96.840017, "pop_max": 4798000, "visible": 1 }, "geometry": { "type": "Point", "coordinates": [ -96.841962787498176, 32.821969681677331 ] } },
{ "type": "Feature", "properties": { "scalerank": 1, "name": "Houston", "namealt": null, "adm1name": "Texas", "latitude": 29.819974, "longitude": -95.339979, "pop_max": 4459000, "visible": 1 }, "geometry": { "type": "Point", "coordinates": [ -95.341925149145993, 29.821920243188856 ] } },
{ "type": "Feature", "properties": { "scalerank": 7, "name": "Alexandria", "namealt": null, "adm1name": "Virginia", "latitude": 38.820433, "longitude": -77.099982, "pop_max": 127273, "visible": 1 }, "geometry": { "type": "Point", "coordinates": [ -77.09998152841581, 38.820432758635206 ] } },
{ "type": "Feature", "properties": { "scalerank": 6, "name": "Virginia Beach", "namealt": null, "adm1name": "Virginia", "latitude": 36.853214, "longitude": -75.978319, "pop_max": 1491000, "visible": 1 }, "geometry": { "type": "Point", "coordinates": [ -75.980264585917439, 36.855160192761275 ] } },
{ "type": "Feature", "properties": { "scalerank": 6, "name": "Lynchburg", "namealt": null, "adm1name": "Virginia", "latitude": 37.413619, "longitude": -79.142467, "pop_max": 103893, "visible": 1 }, "geometry": { "type": "Point", "coordinates": [ -79.142466676535946, 37.413619404137421 ] } },
{ "type": "Feature", "properties": { "scalerank": 4, "name": "Richmond", "namealt": null, "adm1name": "Virginia", "latitude": 37.550019, "longitude": -77.449986, "pop_max": 912000, "visible": 1 }, "geometry": { "type": "Point", "coordinates": [ -77.451931862941592, 37.551965205784768 ] } },
{ "type": "Feature", "properties": { "scalerank": 3, "name": "Norfolk", "namealt": null, "adm1name": "Virginia", "latitude": 36.849959, "longitude": -76.280006, "pop_max": 1047869, "visible": 1 }, "geometry": { "type": "Point", "coordinates": [ -76.280005739024489, 36.849958718913911 ] } },
{ "type": "Feature", "properties": { "scalerank": 8, "name": "Annapolis", "namealt": null, "adm1name": "Maryland", "latitude": 38.978330, "longitude": -76.492499, "pop_max": 81300, "visible": 1 }, "geometry": { "type": "Point", "coordinates": [ -76.492499228608665, 38.978330097503033 ] } },
{ "type": "Feature", "properties": { "scalerank": 8, "name": "Hagerstown", "namealt": null, "adm1name": "Maryland", "latitude": 39.641649, "longitude": -77.720280, "pop_max": 79662, "visible": 1 }, "geometry": { "type": "Point", "coordinates": [ -77.720279583431306, 39.641648782401546 ] } },
{ "type": "Feature", "properties": { "scalerank": 4, "name": "Baltimore", "namealt": null, "adm1name": "Maryland", "latitude": 39.299990, "longitude": -76.619985, "pop_max": 2255000, "visible": 1 }, "geometry": { "type": "Point", "coordinates": [ -76.621930845685483, 39.301935908916732 ] } },
{ "type": "Feature", "properties": { "scalerank": 6, "name": "Idaho Falls", "namealt": null, "adm1name": "Idaho", "latitude": 43.466687, "longitude": -112.033301, "pop_max": 79399, "visible": 1 }, "geometry": { "type": "Point", "coordinates": [ -112.033301434154509, 43.466686624213708 ] } },
{ "type": "Feature", "properties": { "scalerank": 6, "name": "Lewiston", "namealt": null, "adm1name": "Idaho", "latitude": 46.416610, "longitude": -117.016589, "pop_max": 49289, "visible": 1 }, "geometry": { "type": "Point", "coordinates": [ -117.016588991140566, 46.416609923379269 ] } },
{ "type": "Feature", "properties": { "scalerank": 3, "name": "Boise", "namealt": null, "adm1name": "Idaho", "latitude": 43.608590, "longitude": -116.227490, "pop_max": 338071, "visible": 1 }, "geometry": { "type": "Point", "coordinates": [ -116.227489870043655, 43.608590107287284 ] } },
{ "type": "Feature", "properties": { "scalerank": 7, "name": "Covington", "namealt": null, "adm1name": "Kentucky", "latitude": 39.084008, "longitude": -84.508599, "pop_max": 585489, "visible": 1 }, "geometry": { "type": "Point", "coordinates": [ -84.508599082156252, 39.084008401539904 ] } },
{ "type": "Feature", "properties": { "scalerank": 7, "name": "Bowling Green", "namealt": null, "adm1name": "Kentucky", "latitude": 36.990699, "longitude": -86.443649, "pop_max": 71140, "visible": 1 }, "geometry": { "type": "Point", "coordinates": [ -86.443648927541687, 36.990699482260766 ] } },
{ "type": "Feature", "properties": { "scalerank": 6, "name": "Louisville", "namealt": null, "adm1name": "Kentucky", "latitude": 38.225017, "longitude": -85.748704, "pop_max": 948000, "visible": 1 }, "geometry": { "type": "Point", "coordinates": [ -85.750650124693436, 38.226962764381426 ] } },
{ "type": "Feature", "properties": { "scalerank": 6, "name": "Lexington", "namealt": null, "adm1name": "Kentucky", "latitude": 38.050015, "longitude": -84.500021, "pop_max": 264578, "visible": 1 }, "geometry": { "type": "Point", "coordinates": [ -84.500020794395937, 38.050014667811922 ] } },
{ "type": "Feature", "properties": { "scalerank": 7, "name": "Atlantic City", "namealt": null, "adm1name": "New Jersey", "latitude": 39.364637, "longitude": -74.423323, "pop_max": 76573, "visible": 1 }, "geometry": { "type": "Point", "coordinates": [ -74.423323203209691, 39.364637267100989 ] } },
{ "type": "Feature", "properties": { "scalerank": 7, "name": "Newark", "namealt": null, "adm1name": "New Jersey", "latitude": 40.700421, "longitude": -74.170005, "pop_max": 280123, "visible": 1 }, "geometry": { "type": "Point", "coordinates": [ -74.170005332114897, 40.700421365413604 ] } },
{ "type": "Feature", "properties": { "scalerank": 6, "name": "Trenton", "namealt": null, "adm1name": "New Jersey", "latitude": 40.216963, "longitude": -74.743355, "pop_max": 366513, "visible": 1 }, "geometry": { "type": "Point", "coordinates": [ -74.743355348393322, 40.216962503107027 ] } },
{ "type": "Feature", "properties": { "scalerank": 4, "name": "Tulsa", "namealt": null, "adm1name": "Oklahoma", "latitude": 36.120003, "longitude": -95.930021, "pop_max": 946962, "visible": 1 }, "geometry": { "type": "Point", "coordinates": [ -95.930020794441589, 36.120003274575026 ] } },
{ "type": "Feature", "properties": { "scalerank": 3, "name": "Oklahoma City", "namealt": null, "adm1name": "Oklahoma", "latitude": 35.470043, "longitude": -97.518684, "pop_max": 788000, "visible": 1 }, "geometry": { "type": "Point", "coordinates": [ -97.520629372787369, 35.471988806036848 ] } },
{ "type": "Feature", "properties": { "scalerank": 7, "name": "Texarkana", "namealt": null, "adm1name": "Arkansas", "latitude": 33.442105, "longitude": -94.037475, "pop_max": 74414, "visible": 1 }, "geometry": { "type": "Point", "coordinates": [ -94.03747481461636, 33.442104714993889 ] } },
{ "type": "Feature", "properties": { "scalerank": 7, "name": "Fayetteville", "namealt": null, "adm1name": "Arkansas", "latitude": 36.062978, "longitude": -94.157209, "pop_max": 151671, "visible": 1 }, "geometry": { "type": "Point", "coordinates": [ -94.1572091082366, 36.062978331540933 ] } },
{ "type": "Feature", "properties": { "scalerank": 6, "name": "Little Rock", "namealt": null, "adm1name": "Arkansas", "latitude": 34.736083, "longitude": -92.331093, "pop_max": 270893, "visible": 1 }, "geometry": { "type": "Point", "coordinates": [ -92.331093182122515, 34.736082579582558 ] } },
{ "type": "Feature", "properties": { "scalerank": 8, "name": "Kansas City", "namealt": null, "adm1name": "Kansas", "latitude": 39.113581, "longitude": -94.630146, "pop_max": 501577, "visible": 1 }, "geometry": { "type": "Point", "coordinates": [ -94.630146377123708, 39.113580516943443 ] } },
{ "type": "Feature", "properties": { "scalerank": 6, "name": "Wichita", "namealt": null, "adm1name": "Kansas", "latitude": 37.719983, "longitude": -97.329987, "pop_max": 401843, "visible": 1 }, "geometry": { "type": "Point", "coordinates": [ -97.32998702166077, 37.719983132979792 ] } },
{ "type": "Feature", "properties": { "scalerank": 4, "name": "Topeka", "namealt": null, "adm1name": "Kansas", "latitude": 39.050005, "longitude": -95.669985, "pop_max": 132091, "visible": 1 }, "geometry": { "type": "Point", "coordinates": [ -95.669984987148894, 39.050005309091887 ] } },
{ "type": "Feature", "properties": { "scalerank": 6, "name": "Lincoln", "namealt": null, "adm1name": "Nebraska", "latitude": 40.819975, "longitude": -96.680001, "pop_max": 246220, "visible": 1 }, "geometry": { "type": "Point", "coordinates": [ -96.680000856293589, 40.819974791520963 ] } },
{ "type": "Feature", "properties": { "scalerank": 3, "name": "Omaha", "namealt": null, "adm1name": "Nebraska", "latitude": 41.240001, "longitude": -96.009990, "pop_max": 877110, "visible": 1 }, "geometry": { "type": "Point", "coordinates": [ -96.009990073413292, 41.240000833189242 ] } },
{ "type": "Feature", "properties": { "scalerank": 7, "name": "Rochester", "namealt": null, "adm1name": "Minnesota", "latitude": 44.022053, "longitude": -92.469689, "pop_max": 108511, "visible": 1 }, "geometry": { "type": "Point", "coordinates": [ -92.469689373529377, 44.022053242054596 ] } },
{ "type": "Feature", "properties": { "scalerank": 6, "name": "Duluth", "namealt": null, "adm1name": "Minnesota", "latitude": 46.783332, "longitude": -92.106378, "pop_max": 84800, "visible": 1 }, "geometry": { "type": "Point", "coordinates": [ -92.106378216301266, 46.783331725138396 ] } },
{ "type": "Feature", "properties": { "scalerank": 2, "name": "Minneapolis", "namealt": "Minneapolis-St. Paul", "adm1name": "Minnesota", "latitude": 44.979979, "longitude": -93.251786, "pop_max": 2616000, "visible": 1 }, "geometry": { "type": "Point", "coordinates": [ -93.25373219666352, 44.981925126061867 ] } },
{ "type": "Feature", "properties": { "scalerank": 4, "name": "Knoxville", "namealt": null, "adm1name": "Tennessee", "latitude": 35.970012, "longitude": -83.920030, "pop_max": 655400, "visible": 1 }, "geometry": { "type": "Point", "coordinates": [ -83.920030356568077, 35.970012429847827 ] } },
{ "type": "Feature", "properties": { "scalerank": 3, "name": "Nashville", "namealt": "Nashville-Davidson", "adm1name": "Tennessee", "latitude": 36.169974, "longitude": -86.779985, "pop_max": 877000, "visible": 1 }, "geometry": { "type": "Point", "coordinates": [ -86.781930845726322, 36.171920243214061 ] } },
{ "type": "Feature", "properties": { "scalerank": 3, "name": "Memphis", "namealt": null, "adm1name": "Tennessee", "latitude": 35.119987, "longitude": -89.999995, "pop_max": 1081000, "visible": 1 }, "geometry": { "type": "Point", "coordinates": [ -90.001941018265143, 35.121932653691829 ] } },
{ "type": "Feature", "properties": { "scalerank": 6, "name": "Columbus", "namealt": "Columbus, Ohio", "adm1name": "Ohio", "latitude": 39.979974, "longitude": -82.990010, "pop_max": 1270000, "visible": 1 }, "geometry": { "type": "Point", "coordinates": [ -82.991955463224087, 39.981920243229297 ] } },
{ "type": "Feature", "properties": { "scalerank": 3, "name": "Cleveland", "namealt": null, "adm1name": "Ohio", "latitude": 41.469987, "longitude": -81.694998, "pop_max": 1890000, "visible": 1 }, "geometry": { "type": "Point", "coordinates": [ -81.696944069989627, 41.471932653717317 ] } },
{ "type": "Feature", "properties": { "scalerank": 3, "name": "Cincinnati", "namealt": null, "adm1name": "Ohio", "latitude": 39.161885, "longitude": -84.456923, "pop_max": 1636000, "visible": 1 }, "geometry": { "type": "Point", "coordinates": [ -84.458868508477337, 39.163830643616848 ] } },
{ "type": "Feature", "properties": { "scalerank": 7, "name": "Wheeling", "namealt": null, "adm1name": "West Virginia", "latitude": 40.064310, "longitude": -80.721078, "pop_max": 52492, "visible": 1 }, "geometry": { "type": "Point", "coordinates": [ -80.72107833018805, 40.064310322116853 ] } },
{ "type": "Feature", "properties": { "scalerank": 7, "name": "Huntington", "namealt": null, "adm1name": "West Virginia", "latitude": 38.419579, "longitude": -82.445288, "pop_max": 85396, "visible": 1 }, "geometry": { "type": "Point", "coordinates": [ -82.445288331822553, 38.419578673347246 ] } },
{ "type": "Feature", "properties": { "scalerank": 4, "name": "Charleston", "namealt": null, "adm1name": "West Virginia", "latitude": 38.349738, "longitude": -81.632728, "pop_max": 123799, "visible": 1 }, "geometry": { "type": "Point", "coordinates": [ -81.632728110465166, 38.349737975104802 ] } },
{ "type": "Feature", "properties": { "scalerank": 6, "name": "Provo", "namealt": null, "adm1name": "Utah", "latitude": 40.248899, "longitude": -111.637770, "pop_max": 356712, "visible": 1 }, "geometry": { "type": "Point", "coordinates": [ -111.637770021392498, 40.248898538263347 ] } },
{ "type": "Feature", "properties": { "scalerank": 3, "name": "Salt Lake City", "namealt": null, "adm1name": "Utah", "latitude": 40.775016, "longitude": -111.930052, "pop_max": 966000, "visible": 1 }, "geometry": { "type": "Point", "coordinates": [ -111.93199778104821, 40.776962154040064 ] } },
{ "type": "Feature", "properties": { "scalerank": 7, "name": "Aberdeen", "namealt": null, "adm1name": "South Dakota", "latitude": 45.465118, "longitude": -98.486402, "pop_max": 26041, "visible": 1 }, "geometry": { "type": "Point", "coordinates": [ -98.486402223488312, 45.465117613805091 ] } },
{ "type": "Feature", "properties": { "scalerank": 6, "name": "Rapid City", "namealt": null, "adm1name": "South Dakota", "latitude": 44.080551, "longitude": -103.230557, "pop_max": 73632, "visible": 1 }, "geometry": { "type": "Point", "coordinates": [ -103.230557090043703, 44.080550963408996 ] } },
{ "type": "Feature", "properties": { "scalerank": 4, "name": "Sioux Falls", "namealt": null, "adm1name": "South Dakota", "latitude": 43.549989, "longitude": -96.729998, "pop_max": 155724, "visible": 1 }, "geometry": { "type": "Point", "coordinates": [ -96.729997804535969, 43.5499890330683 ] } },
{ "type": "Feature", "properties": { "scalerank": 7, "name": "Las Cruces", "namealt": null, "adm1name": "New Mexico", "latitude": 32.312613, "longitude": -106.777808, "pop_max": 115167, "visible": 1 }, "geometry": { "type": "Point", "coordinates": [ -106.777808270070977, 32.312612934390586 ] } },
{ "type": "Feature", "properties": { "scalerank": 4, "name": "Albuquerque", "namealt": null, "adm1name": "New Mexico", "latitude": 35.104975, "longitude": -106.641331, "pop_max": 898642, "visible": 1 }, "geometry": { "type": "Point", "coordinates": [ -106.641330812387992, 35.104974791498023 ] } },
{ "type": "Feature", "properties": { "scalerank": 3, "name": "Santa Fe", "namealt": null, "adm1name": "New Mexico", "latitude": 35.686929, "longitude": -105.937239, "pop_max": 92681, "visible": 1 }, "geometry": { "type": "Point", "coordinates": [ -105.937239422411324, 35.686928933753052 ] } },
{ "type": "Feature", "properties": { "scalerank": 7, "name": "Newport", "namealt": null, "adm1name": "Rhode Island", "latitude": 41.490399, "longitude": -71.313358, "pop_max": 45968, "visible": 1 }, "geometry": { "type": "Point", "coordinates": [ -71.313357993236423, 41.490398985859485 ] } },
{ "type": "Feature", "properties": { "scalerank": 6, "name": "Providence", "namealt": null, "adm1name": "Rhode Island", "latitude": 41.821102, "longitude": -71.414980, "pop_max": 1277000, "visible": 1 }, "geometry": { "type": "Point", "coordinates": [ -71.416925555951195, 41.823048172924359 ] } },
{ "type": "Feature", "properties": { "scalerank": 6, "name": "Hartford", "namealt": null, "adm1name": "Connecticut", "latitude": 41.770020, "longitude": -72.679967, "pop_max": 913000, "visible": 1 }, "geometry": { "type": "Point", "coordinates": [ -72.681912942024042, 41.771966019603724 ] } },
{ "type": "Feature", "properties": { "scalerank": 4, "name": "Bridgeport", "namealt": "Bridgeport-Stamford", "adm1name": "Connecticut", "latitude": 41.179979, "longitude": -73.199961, "pop_max": 1018000, "visible": 1 }, "geometry": { "type": "Point", "coordinates": [ -73.201907041961078, 41.1819245156953 ] } },
{ "type": "Feature", "properties": { "scalerank": 7, "name": "Davenport", "namealt": null, "adm1name": "Iowa", "latitude": 41.553987, "longitude": -90.587530, "pop_max": 255738, "visible": 1 }, "geometry": { "type": "Point", "coordinates": [ -90.587530356594755, 41.553986835794717 ] } },
{ "type": "Feature", "properties": { "scalerank": 7, "name": "Council Bluffs", "namealt": null, "adm1name": "Iowa", "latitude": 41.262273, "longitude": -95.860800, "pop_max": 101805, "visible": 1 }, "geometry": { "type": "Point", "coordinates": [ -95.860800213386597, 41.262273375507107 ] } },
{ "type": "Feature", "properties": { "scalerank": 6, "name": "Cedar Rapids", "namealt": null, "adm1name": "Iowa", "latitude": 41.969982, "longitude": -91.660023, "pop_max": 170621, "visible": 1 }, "geometry": { "type": "Point", "coordinates": [ -91.660023032380309, 41.969982115744301 ] } },
{ "type": "Feature", "properties": { "scalerank": 3, "name": "Des Moines", "namealt": null, "adm1name": "Iowa", "latitude": 41.579980, "longitude": -93.619981, "pop_max": 380655, "visible": 1 }, "geometry": { "type": "Point", "coordinates": [ -93.619980918130238, 41.579980081237352 ] } },
{ "type": "Feature", "properties": { "scalerank": 4, "name": "Shreveport", "namealt": null, "adm1name": "Louisiana", "latitude": 32.500018, "longitude": -93.770023, "pop_max": 248053, "visible": 1 }, "geometry": { "type": "Point", "coordinates": [ -93.77002343928973, 32.500017516097046 ] } },
{ "type": "Feature", "properties": { "scalerank": 4, "name": "Baton Rouge", "namealt": null, "adm1name": "Louisiana", "latitude": 30.457946, "longitude": -91.140158, "pop_max": 422072, "visible": 1 }, "geometry": { "type": "Point", "coordinates": [ -91.140158123523975, 30.457945779435136 ] } },
{ "type": "Feature", "properties": { "scalerank": 2, "name": "New Orleans", "namealt": null, "adm1name": "Louisiana", "latitude": 29.995002, "longitude": -90.039967, "pop_max": 785000, "visible": 1 }, "geometry": { "type": "Point", "coordinates": [ -90.04191273864285, 29.996948319361479 ] } },
{ "type": "Feature", "properties": { "scalerank": 8, "name": "Dover", "namealt": null, "adm1name": "Delaware", "latitude": 39.158087, "longitude": -75.524703, "pop_max": 76039, "visible": 1 }, "geometry": { "type": "Point", "coordinates": [ -75.524703004646426, 39.158086567230384 ] } },
{ "type": "Feature", "properties": { "scalerank": 7, "name": "Wilmington", "namealt": null, "adm1name": "Delaware", "latitude": 39.746268, "longitude": -75.546898, "pop_max": 161560, "visible": 1 }, "geometry": { "type": "Point", "coordinates": [ -75.546898032315823, 39.746267719576451 ] } },
{ "type": "Feature", "properties": { "scalerank": 6, "name": "Birmingham", "namealt": null, "adm1name": "Alabama", "latitude": 33.530006, "longitude": -86.824995, "pop_max": 1128047, "visible": 1 }, "geometry": { "type": "Point", "coordinates": [ -86.82499515963957, 33.530006326322507 ] } },
{ "type": "Feature", "properties": { "scalerank": 6, "name": "Mobile", "namealt": null, "adm1name": "Alabama", "latitude": 30.680025, "longitude": -88.049985, "pop_max": 253466, "visible": 1 }, "geometry": { "type": "Point", "coordinates": [ -88.049984987118421, 30.680025247209471 ] } },
{ "type": "Feature", "properties": { "scalerank": 6, "name": "Huntsville", "namealt": null, "adm1name": "Alabama", "latitude": 34.719960, "longitude": -86.609995, "pop_max": 212733, "visible": 1 }, "geometry": { "type": "Point", "coordinates": [ -86.60999536308924, 34.719959532707378 ] } },
{ "type": "Feature", "properties": { "scalerank": 4, "name": "Montgomery", "namealt": null, "adm1name": "Alabama", "latitude": 32.361602, "longitude": -86.279189, "pop_max": 198325, "visible": 1 }, "geometry": { "type": "Point", "coordinates": [ -86.279188681772723, 32.361602192203065 ] } },
{ "type": "Feature", "properties": { "scalerank": 8, "name": "Rockford", "namealt": null, "adm1name": "Illinois", "latitude": 42.269705, "longitude": -89.069690, "pop_max": 255978, "visible": 1 }, "geometry": { "type": "Point", "coordinates": [ -89.06969018731786, 42.26970542303718 ] } },
{ "type": "Feature", "properties": { "scalerank": 7, "name": "Belleville", "namealt": null, "adm1name": "Illinois", "latitude": 38.525154, "longitude": -90.000228, "pop_max": 143900, "visible": 1 }, "geometry": { "type": "Point", "coordinates": [ -90.000227703597602, 38.525153624519533 ] } },
{ "type": "Feature", "properties": { "scalerank": 6, "name": "Springfield", "namealt": null, "adm1name": "Illinois", "latitude": 39.820010, "longitude": -89.650017, "pop_max": 134715, "visible": 1 }, "geometry": { "type": "Point", "coordinates": [ -89.650016521955479, 39.820009988457002 ] } },
{ "type": "Feature", "properties": { "scalerank": 1, "name": "Chicago", "namealt": null, "adm1name": "Illinois", "latitude": 41.829991, "longitude": -87.750055, "pop_max": 8990000, "visible": 1 }, "geometry": { "type": "Point", "coordinates": [ -87.752000832709314, 41.831936519278429 ] } },
{ "type": "Feature", "properties": { "scalerank": 7, "name": "Gary", "namealt": null, "adm1name": "Indiana", "latitude": 41.580393, "longitude": -87.330003, "pop_max": 591180, "visible": 1 }, "geometry": { "type": "Point", "coordinates": [ -87.330003094211918, 41.580393492695862 ] } },
{ "type": "Feature", "properties": { "scalerank": 7, "name": "Fort Wayne", "namealt": null, "adm1name": "Indiana", "latitude": 41.080398, "longitude": -85.129982, "pop_max": 299871, "visible": 1 }, "geometry": { "type": "Point", "coordinates": [ -85.129982342250003, 41.080398172055766 ] } },
{ "type": "Feature", "properties": { "scalerank": 6, "name": "Evansville", "namealt": null, "adm1name": "Indiana", "latitude": 37.974696, "longitude": -87.555829, "pop_max": 174102, "visible": 1 }, "geometry": { "type": "Point", "coordinates": [ -87.555829103327369, 37.974696267746481 ] } },
{ "type": "Feature", "properties": { "scalerank": 4, "name": "Indianapolis", "namealt": null, "adm1name": "Indiana", "latitude": 39.749988, "longitude": -86.170048, "pop_max": 1436000, "visible": 1 }, "geometry": { "type": "Point", "coordinates": [ -86.171993915385201, 39.751934281314504 ] } },
{ "type": "Feature", "properties": { "scalerank": 8, "name": "Springfield", "namealt": null, "adm1name": "Massachusetts", "latitude": 42.120025, "longitude": -72.579999, "pop_max": 421780, "visible": 1 }, "geometry": { "type": "Point", "coordinates": [ -72.579999025142399, 42.120024636903736 ] } },
{ "type": "Feature", "properties": { "scalerank": 7, "name": "Lowell", "namealt": null, "adm1name": "Massachusetts", "latitude": 42.633688, "longitude": -71.316691, "pop_max": 723629, "visible": 1 }, "geometry": { "type": "Point", "coordinates": [ -71.316691123119199, 42.633688373884922 ] } },
{ "type": "Feature", "properties": { "scalerank": 2, "name": "Boston", "namealt": null, "adm1name": "Massachusetts", "latitude": 42.329960, "longitude": -71.070014, "pop_max": 4467000, "visible": 1 }, "geometry": { "type": "Point", "coordinates": [ -71.071959532186838, 42.331906001702293 ] } },
{ "type": "Feature", "properties": { "scalerank": 4, "name": "Fresno", "namealt": null, "adm1name": "California", "latitude": 36.747717, "longitude": -119.772984, "pop_max": 616353, "visible": 1 }, "geometry": { "type": "Point", "coordinates": [ -119.77298405137293, 36.747716897624457 ] } },
{ "type": "Feature", "properties": { "scalerank": 2, "name": "San Diego", "namealt": null, "adm1name": "California", "latitude": 32.820024, "longitude": -117.179990, "pop_max": 2916000, "visible": 1 }, "geometry": { "type": "Point", "coordinates": [ -117.181935728660278, 32.821969681677331 ] } },
{ "type": "Feature", "properties": { "scalerank": 1, "name": "San Francisco", "namealt": "San Francisco-Oakland", "adm1name": "California", "latitude": 37.740008, "longitude": -122.459978, "pop_max": 3450000, "visible": 1 }, "geometry": { "type": "Point", "coordinates": [ -122.417168773552248, 37.769195629687431 ] } },
{ "type": "Feature", "properties": { "scalerank": 0, "name": "Los Angeles", "namealt": "Los Angeles-Long Beach-Santa Ana", "adm1name": "California", "latitude": 33.989978, "longitude": -118.179981, "pop_max": 12500000, "visible": 1 }, "geometry": { "type": "Point", "coordinates": [ -118.181926369940413, 33.991924108765431 ] } },
{ "type": "Feature", "properties": { "scalerank": 7, "name": "Greenville", "namealt": null, "adm1name": "South Carolina", "latitude": 34.852923, "longitude": -82.394155, "pop_max": 350954, "visible": 1 }, "geometry": { "type": "Point", "coordinates": [ -82.394154502069739, 34.852922992994365 ] } },
{ "type": "Feature", "properties": { "scalerank": 6, "name": "Charleston", "namealt": null, "adm1name": "South Carolina", "latitude": 32.792377, "longitude": -79.992105, "pop_max": 411940, "visible": 1 }, "geometry": { "type": "Point", "coordinates": [ -79.992104738062778, 32.79237693178834 ] } },
{ "type": "Feature", "properties": { "scalerank": 4, "name": "Columbia", "namealt": null, "adm1name": "South Carolina", "latitude": 34.039975, "longitude": -80.899982, "pop_max": 398093, "visible": 1 }, "geometry": { "type": "Point", "coordinates": [ -80.899982138782434, 34.039975198394757 ] } },
{ "type": "Feature", "properties": { "scalerank": 7, "name": "Fort Collins", "namealt": null, "adm1name": "Colorado", "latitude": 40.560688, "longitude": -105.058869, "pop_max": 228385, "visible": 1 }, "geometry": { "type": "Point", "coordinates": [ -105.058869264530131, 40.560688292496479 ] } },
{ "type": "Feature", "properties": { "scalerank": 6, "name": "Grand Junction", "namealt": null, "adm1name": "Colorado", "latitude": 39.093853, "longitude": -108.550000, "pop_max": 104214, "visible": 1 }, "geometry": { "type": "Point", "coordinates": [ -108.5499998390884, 39.093852761891526 ] } },
{ "type": "Feature", "properties": { "scalerank": 4, "name": "Colorado Springs", "namealt": null, "adm1name": "Colorado", "latitude": 38.862962, "longitude": -104.791986, "pop_max": 493654, "visible": 1 }, "geometry": { "type": "Point", "coordinates": [ -104.791986329958831, 38.862962462411531 ] } },
{ "type": "Feature", "properties": { "scalerank": 1, "name": "Denver", "namealt": "Denver-Aurora", "adm1name": "Colorado", "latitude": 39.739188, "longitude": -104.984016, "pop_max": 2313000, "visible": 1 }, "geometry": { "type": "Point", "coordinates": [ -104.985961810968206, 39.741133906965501 ] } },
{ "type": "Feature", "properties": { "scalerank": 6, "name": "Albany", "namealt": null, "adm1name": "New York", "latitude": 42.670017, "longitude": -73.819949, "pop_max": 870716, "visible": 1 }, "geometry": { "type": "Point", "coordinates": [ -73.819949179769822, 42.670016905786042 ] } },
{ "type": "Feature", "properties": { "scalerank": 4, "name": "Syracuse", "namealt": null, "adm1name": "New York", "latitude": 43.049994, "longitude": -76.150014, "pop_max": 662577, "visible": 1 }, "geometry": { "type": "Point", "coordinates": [ -76.150013673594231, 43.049993712428261 ] } },
{ "type": "Feature", "properties": { "scalerank": 3, "name": "Buffalo", "namealt": null, "adm1name": "New York", "latitude": 42.879978, "longitude": -78.880002, "pop_max": 1016000, "visible": 1 }, "geometry": { "type": "Point", "coordinates": [ -78.881947935538278, 42.881924108800831 ] } },
{ "type": "Feature", "properties": { "scalerank": 0, "name": "New York", "namealt": "New York-Newark", "adm1name": "New York", "latitude": 40.749979, "longitude": -73.980017, "pop_max": 19040000, "visible": 1 }, "geometry": { "type": "Point", "coordinates": [ -73.981962787406815, 40.75192492259464 ] } },
{ "type": "Feature", "properties": { "scalerank": 7, "name": "Flint", "namealt": null, "adm1name": "Michigan", "latitude": 43.012864, "longitude": -83.687538, "pop_max": 295212, "visible": 1 }, "geometry": { "type": "Point", "coordinates": [ -83.687538087686846, 43.012864195826523 ] } },
{ "type": "Feature", "properties": { "scalerank": 7, "name": "Grand Rapids", "namealt": null, "adm1name": "Michigan", "latitude": 42.963720, "longitude": -85.669949, "pop_max": 535829, "visible": 1 }, "geometry": { "type": "Point", "coordinates": [ -85.669949383267749, 42.963719908717053 ] } },
{ "type": "Feature", "properties": { "scalerank": 2, "name": "Detroit", "namealt": null, "adm1name": "Michigan", "latitude": 42.329960, "longitude": -83.080056, "pop_max": 4101000, "visible": 1 }, "geometry": { "type": "Point", "coordinates": [ -83.082001646492699, 42.331906001702293 ] } },
{ "type": "Feature", "properties": { "scalerank": 7, "name": "Columbia", "namealt": null, "adm1name": "Missouri", "latitude": 38.952078, "longitude": -92.333910, "pop_max": 398093, "visible": 1 }, "geometry": { "type": "Point", "coordinates": [ -92.33390954768231, 38.952078469898879 ] } },
{ "type": "Feature", "properties": { "scalerank": 4, "name": "Kansas City", "namealt": null, "adm1name": "Missouri", "latitude": 39.107089, "longitude": -94.604094, "pop_max": 1469000, "visible": 1 }, "geometry": { "type": "Point", "coordinates": [ -94.606040077545799, 39.109034368397488 ] } },
{ "type": "Feature", "properties": { "scalerank": 2, "name": "St. Louis", "namealt": null, "adm1name": "Missouri", "latitude": 38.635018, "longitude": -90.239981, "pop_max": 2199000, "visible": 1 }, "geometry": { "type": "Point", "coordinates": [ -90.241926369828604, 38.636963578185146 ] } },
{ "type": "Feature", "properties": { "scalerank": 6, "name": "Yakima", "namealt": null, "adm1name": "Washington", "latitude": 46.602232, "longitude": -120.504696, "pop_max": 99287, "visible": 1 }, "geometry": { "type": "Point", "coordinates": [ -120.5046964944097, 46.602231668171555 ] } },
{ "type": "Feature", "properties": { "scalerank": 4, "name": "Spokane", "namealt": null, "adm1name": "Washington", "latitude": 47.669996, "longitude": -117.419949, "pop_max": 347705, "visible": 1 }, "geometry": { "type": "Point", "coordinates": [ -117.419949383394737, 47.669995950402381 ] } },
{ "type": "Feature", "properties": { "scalerank": 4, "name": "Vancouver", "namealt": null, "adm1name": "Washington", "latitude": 45.630301, "longitude": -122.639993, "pop_max": 525802, "visible": 1 }, "geometry": { "type": "Point", "coordinates": [ -122.639992514926064, 45.63030132962615 ] } },
{ "type": "Feature", "properties": { "scalerank": 2, "name": "Seattle", "namealt": null, "adm1name": "Washington", "latitude": 47.570002, "longitude": -122.339985, "pop_max": 3074000, "visible": 1 }, "geometry": { "type": "Point", "coordinates": [ -122.34193084586849, 47.571947912530732 ] } },
{ "type": "Feature", "properties": { "scalerank": 3, "name": "Juneau", "namealt": null, "adm1name": "Alaska", "latitude": 58.314127, "longitude": -134.419997, "pop_max": 30711, "visible": 1 }, "geometry": { "type": "Point", "coordinates": [ -134.419996990884613, 58.314126606369427 ] } },
{ "type": "Feature", "properties": { "scalerank": 3, "name": "Fairbanks", "namealt": null, "adm1name": "Alaska", "latitude": 64.836984, "longitude": -147.710659, "pop_max": 56993, "visible": 1 }, "geometry": { "type": "Point", "coordinates": [ -147.71065861203158, 64.836984272411257 ] } },
{ "type": "Feature", "properties": { "scalerank": 2, "name": "Anchorage", "namealt": null, "adm1name": "Alaska", "latitude": 61.219970, "longitude": -149.900215, "pop_max": 260283, "visible": 1 }, "geometry": { "type": "Point", "coordinates": [ -149.900214886454364, 61.219969908790006 ] } },
{ "type": "Feature", "properties": { "scalerank": 7, "name": "Gillette", "namealt": null, "adm1name": "Wyoming", "latitude": 44.283174, "longitude": -105.505250, "pop_max": 29113, "visible": 1 }, "geometry": { "type": "Point", "coordinates": [ -105.505250286667433, 44.283174254425262 ] } },
{ "type": "Feature", "properties": { "scalerank": 4, "name": "Casper", "namealt": null, "adm1name": "Wyoming", "latitude": 42.866620, "longitude": -106.312488, "pop_max": 60791, "visible": 1 }, "geometry": { "type": "Point", "coordinates": [ -106.3124878354987, 42.866619892440497 ] } },
{ "type": "Feature", "properties": { "scalerank": 3, "name": "Cheyenne", "namealt": null, "adm1name": "Wyoming", "latitude": 41.140007, "longitude": -104.819711, "pop_max": 72927, "visible": 1 }, "geometry": { "type": "Point", "coordinates": [ -104.819710735883461, 41.140006936704538 ] } },
{ "type": "Feature", "properties": { "scalerank": 6, "name": "Bangor", "namealt": null, "adm1name": "Maine", "latitude": 44.801153, "longitude": -68.778345, "pop_max": 50213, "visible": 1 }, "geometry": { "type": "Point", "coordinates": [ -68.778344768942361, 44.801152973502951 ] } },
{ "type": "Feature", "properties": { "scalerank": 6, "name": "Portland", "namealt": null, "adm1name": "Maine", "latitude": 43.672162, "longitude": -70.245527, "pop_max": 135866, "visible": 1 }, "geometry": { "type": "Point", "coordinates": [ -70.245527399270429, 43.672161575598466 ] } },
{ "type": "Feature", "properties": { "scalerank": 4, "name": "Augusta", "namealt": null, "adm1name": "Maine", "latitude": 44.310563, "longitude": -69.779989, "pop_max": 24042, "visible": 1 }, "geometry": { "type": "Point", "coordinates": [ -69.77998905605574, 44.310562763539963 ] } },
{ "type": "Feature", "properties": { "scalerank": 6, "name": "Greensboro", "namealt": null, "adm1name": "North Carolina", "latitude": 36.070006, "longitude": -79.800023, "pop_max": 388887, "visible": 1 }, "geometry": { "type": "Point", "coordinates": [ -79.800023439233826, 36.070006326332589 ] } },
{ "type": "Feature", "properties": { "scalerank": 6, "name": "Charlotte", "namealt": null, "adm1name": "North Carolina", "latitude": 35.204995, "longitude": -80.830038, "pop_max": 995000, "visible": 1 }, "geometry": { "type": "Point", "coordinates": [ -80.83198394628829, 35.206940384811901 ] } },
{ "type": "Feature", "properties": { "scalerank": 3, "name": "Raleigh", "namealt": null, "adm1name": "North Carolina", "latitude": 35.818781, "longitude": -78.644693, "pop_max": 1163515, "visible": 1 }, "geometry": { "type": "Point", "coordinates": [ -78.644693442484481, 35.818781350745724 ] } },
{ "type": "Feature", "properties": { "scalerank": 8, "name": "Tomah", "namealt": null, "adm1name": "Wisconsin", "latitude": 43.985053, "longitude": -90.503892, "pop_max": 12997, "visible": 1 }, "geometry": { "type": "Point", "coordinates": [ -90.503892050930347, 43.985052916533448 ] } },
{ "type": "Feature", "properties": { "scalerank": 6, "name": "Madison", "namealt": null, "adm1name": "Wisconsin", "latitude": 43.073016, "longitude": -89.401117, "pop_max": 327447, "visible": 1 }, "geometry": { "type": "Point", "coordinates": [ -89.401116985821773, 43.073015563014337 ] } },
{ "type": "Feature", "properties": { "scalerank": 6, "name": "Green Bay", "namealt": null, "adm1name": "Wisconsin", "latitude": 44.529981, "longitude": -88.000014, "pop_max": 198611, "visible": 1 }, "geometry": { "type": "Point", "coordinates": [ -88.000013877092158, 44.529980895051324 ] } },
{ "type": "Feature", "properties": { "scalerank": 3, "name": "Milwaukee", "namealt": null, "adm1name": "Wisconsin", "latitude": 43.052655, "longitude": -87.919967, "pop_max": 1388000, "visible": 1 }, "geometry": { "type": "Point", "coordinates": [ -87.921912942084987, 43.054600907304177 ] } },
{ "type": "Feature", "properties": { "scalerank": 7, "name": "Manchester", "namealt": null, "adm1name": "New Hampshire", "latitude": 42.995992, "longitude": -71.455287, "pop_max": 196566, "visible": 1 }, "geometry": { "type": "Point", "coordinates": [ -71.455287314526004, 42.995991840683246 ] } },
{ "type": "Feature", "properties": { "scalerank": 6, "name": "Concord", "namealt": null, "adm1name": "New Hampshire", "latitude": 43.208072, "longitude": -71.538047, "pop_max": 44606, "visible": 1 }, "geometry": { "type": "Point", "coordinates": [ -71.538047120841384, 43.208071918809082 ] } },
{ "type": "Feature", "properties": { "scalerank": 8, "name": "Southaven", "namealt": null, "adm1name": "Mississippi", "latitude": 34.968911, "longitude": -90.003457, "pop_max": 121268, "visible": 1 }, "geometry": { "type": "Point", "coordinates": [ -90.00345748061585, 34.968910745273547 ] } },
{ "type": "Feature", "properties": { "scalerank": 7, "name": "Gulfport", "namealt": null, "adm1name": "Mississippi", "latitude": 30.367564, "longitude": -89.092764, "pop_max": 82165, "visible": 1 }, "geometry": { "type": "Point", "coordinates": [ -89.092763714336058, 30.367563699356651 ] } },
{ "type": "Feature", "properties": { "scalerank": 3, "name": "Jackson", "namealt": null, "adm1name": "Mississippi", "latitude": 32.298815, "longitude": -90.184997, "pop_max": 250902, "visible": 1 }, "geometry": { "type": "Point", "coordinates": [ -90.184996787257148, 32.298815326968452 ] } },
{ "type": "Feature", "properties": { "scalerank": 4, "name": "Reno", "namealt": null, "adm1name": "Nevada", "latitude": 39.529976, "longitude": -119.820010, "pop_max": 328585, "visible": 1 }, "geometry": { "type": "Point", "coordinates": [ -119.820009604758468, 39.52997601221881 ] } },
{ "type": "Feature", "properties": { "scalerank": 3, "name": "Las Vegas", "namealt": null, "adm1name": "Nevada", "latitude": 36.209998, "longitude": -115.220006, "pop_max": 1823000, "visible": 1 }, "geometry": { "type": "Point", "coordinates": [ -115.221952004694174, 36.211943640024288 ] } },
{ "type": "Feature", "properties": { "scalerank": 6, "name": "Grand Forks", "namealt": null, "adm1name": "North Dakota", "latitude": 47.925278, "longitude": -97.032486, "pop_max": 58566, "visible": 1 }, "geometry": { "type": "Point", "coordinates": [ -97.032485800956408, 47.925277525924344 ] } },
{ "type": "Feature", "properties": { "scalerank": 4, "name": "Fargo", "namealt": null, "adm1name": "North Dakota", "latitude": 46.877228, "longitude": -96.789426, "pop_max": 162842, "visible": 1 }, "geometry": { "type": "Point", "coordinates": [ -96.789425701671632, 46.877227802612879 ] } },
{ "type": "Feature", "properties": { "scalerank": 3, "name": "Bismarck", "namealt": null, "adm1name": "North Dakota", "latitude": 46.808317, "longitude": -100.783316, "pop_max": 63871, "visible": 1 }, "geometry": { "type": "Point", "coordinates": [ -100.7833162859975, 46.808317280151641 ] } },
{ "type": "Feature", "properties": { "scalerank": 4, "name": "Orlando", "namealt": null, "adm1name": "Florida", "latitude": 28.509977, "longitude": -81.380030, "pop_max": 1350000, "visible": 1 }, "geometry": { "type": "Point", "coordinates": [ -81.381976215170766, 28.511922684589933 ] } },
{ "type": "Feature", "properties": { "scalerank": 4, "name": "Jacksonville", "namealt": "Jacksonville, Florida", "adm1name": "Florida", "latitude": 30.330021, "longitude": -81.669987, "pop_max": 988000, "visible": 1 }, "geometry": { "type": "Point", "coordinates": [ -81.671932676760491, 30.331966629909687 ] } },
{ "type": "Feature", "properties": { "scalerank": 2, "name": "Tampa", "namealt": "Tampa-St. Petersburg", "adm1name": "Florida", "latitude": 27.946988, "longitude": -82.458621, "pop_max": 2314000, "visible": 1 }, "geometry": { "type": "Point", "coordinates": [ -82.46056670996677, 27.94893379298594 ] } },
{ "type": "Feature", "properties": { "scalerank": 1, "name": "Miami", "namealt": null, "adm1name": "Florida", "latitude": 25.787611, "longitude": -80.224106, "pop_max": 5585000, "visible": 1 }, "geometry": { "type": "Point", "coordinates": [ -80.226051939450031, 25.789556555021534 ] } },
{ "type": "Feature", "properties": { "scalerank": 2, "name": "Honolulu", "namealt": null, "adm1name": "Hawaii", "latitude": 21.306876, "longitude": -157.857998, "pop_max": 786000, "visible": 1 }, "geometry": { "type": "Point", "coordinates": [ -157.859943744773602, 21.308822302073963 ] } }
]
}
